[
  {"_id":5391997,"name":"San Francisco County","country":"US","coord":{"lon":-122.45108,"lat":37.766602}},
  {"_id":5423573,"name":"Grand Junction","country":"US","coord":{"lon":-108.550652,"lat":39.063869}},
  {"_id":5525886,"name":"Maverick County","country":"US","coord":{"lon":-100.350349,"lat":28.76692}},
  {"_id":5522430,"name":"Gray County","country":"US","coord":{"lon":-100.802002,"lat":35.416698}},
  {"_id":1512838,"name":"Shofirkon","country":"UZ","coord":{"lon":64.501389,"lat":40.119999}},
  {"_id":1512978,"name":"Qushkupir","country":"UZ","coord":{"lon":60.345558,"lat":41.535}},
  {"_id":1513017,"name":"Parkent","country":"UZ","coord":{"lon":69.676392,"lat":41.294441}},
  {"_id":1513023,"name":"Pop","country":"UZ","coord":{"lon":71.108887,"lat":40.873611}},
  {"_id":1513038,"name":"Paxtakor","country":"UZ","coord":{"lon":67.954437,"lat":40.315281}},
  {"_id":1513092,"name":"Novyy Turtkul","country":"UZ","coord":{"lon":61.01667,"lat":41.549999}},
  {"_id":1513245,"name":"Manghit","country":"UZ","coord":{"lon":60.059719,"lat":42.115559}},
  {"_id":1513655,"name":"Haqqulobod","country":"UZ","coord":{"lon":72.116669,"lat":40.916672}},
  {"_id":1513900,"name":"Iskandar","country":"UZ","coord":{"lon":69.700829,"lat":41.55389}},
  {"_id":1513957,"name":"Hazorasp","country":"UZ","coord":{"lon":61.074169,"lat":41.319439}},
  {"_id":1514215,"name":"Chinoz","country":"UZ","coord":{"lon":68.769722,"lat":40.93639}},
  {"_id":1514330,"name":"Buka","country":"UZ","coord":{"lon":69.198608,"lat":40.810829}},
  {"_id":1514387,"name":"Beruniy","country":"UZ","coord":{"lon":60.752499,"lat":41.691109}},
  {"_id":1514396,"name":"Bektemir","country":"UZ","coord":{"lon":69.334167,"lat":41.209721}},
  {"_id":1526979,"name":"Quva","country":"UZ","coord":{"lon":72.072922,"lat":40.522041}},
  {"_id":3748724,"name":"Redemption","country":"VC","coord":{"lon":-61.229439,"lat":13.16444}},
  {"_id":3649281,"name":"Municipio Anaco","country":"VE","coord":{"lon":-64.466667,"lat":9.33333}},
  {"_id":3486270,"name":"Anaco","country":"VE","coord":{"lon":-64.472778,"lat":9.43889}},
  {"_id":3625123,"name":"Municipio Zamora","country":"VE","coord":{"lon":-67.5,"lat":10.06667}},
  {"_id":3625547,"name":"Municipio Valencia","country":"VE","coord":{"lon":-68.083328,"lat":10.08333}},
  {"_id":8129205,"name":"Municipio Santiago Mariño","country":"VE","coord":{"lon":-67.472878,"lat":10.22388}},
  {"_id":3628416,"name":"Municipio San Felipe","country":"VE","coord":{"lon":-68.633331,"lat":10.5}},
  {"_id":3645361,"name":"Municipio Colón","country":"VE","coord":{"lon":-72.083328,"lat":9}},
  {"_id":3628494,"name":"Municipio San Carlos","country":"VE","coord":{"lon":-68.583328,"lat":9.58333}},
  {"_id":8129204,"name":"Municipio Los Salias","country":"VE","coord":{"lon":-66.95179,"lat":10.38854}},
  {"_id":8129175,"name":"Municipio Sucre","country":"VE","coord":{"lon":-66.801552,"lat":10.47226}},
  {"_id":8129237,"name":"Municipio Libertador","country":"VE","coord":{"lon":-67.541939,"lat":10.17389}},
  {"_id":3630932,"name":"Palo Negro","country":"VE","coord":{"lon":-67.541939,"lat":10.17389}},
  {"_id":3631506,"name":"Municipio Nirgua","country":"VE","coord":{"lon":-68.666672,"lat":10.08333}},
  {"_id":3631507,"name":"Liverpool","country":"VE","coord":{"lon":-68.666672,"lat":10.08333}}
]